[{"venue_id":"53d63be5","name":"Foro Sol","city":"Mexico City","event_date":"27-08-2023","latitude":19.4326296,"longitude":-99.1331785},{"venue_id":"53d63be5","name":"Foro Sol","city":"Mexico City","event_date":"26-08-2023","latitude":19.4326296,"longitude":-99.1331785},{"venue_id":"53d63be5","name":"Foro Sol","city":"Mexico City","event_date":"25-08-2023","latitude":19.4326296,"longitude":-99.1331785},{"venue_id":"53d63be5","name":"Foro Sol","city":"Mexico City","event_date":"24-08-2023","latitude":19.4326296,"longitude":-99.1331785},{"venue_id":"13d0b545","name":"SoFi Stadium","city":"Inglewood","event_date":"09-08-2023","latitude":33.9562003,"longitude":-118.353132},{"venue_id":"13d0b545","name":"SoFi Stadium","city":"Inglewood","event_date":"08-08-2023","latitude":33.9562003,"longitude":-118.353132},{"venue_id":"13d0b545","name":"SoFi Stadium","city":"Inglewood","event_date":"07-08-2023","latitude":33.9562003,"longitude":-118.353132},{"venue_id":"13d0b545","name":"SoFi Stadium","city":"Inglewood","event_date":"05-08-2023","latitude":33.9562003,"longitude":-118.353132},{"venue_id":"13d0b545","name":"SoFi Stadium","city":"Inglewood","event_date":"04-08-2023","latitude":33.9562003,"longitude":-118.353132},{"venue_id":"13d0b545","name":"SoFi Stadium","city":"Inglewood","event_date":"03-08-2023","latitude":33.9562003,"longitude":-118.353132},{"venue_id":"63d4564f","name":"Levi's Stadium","city":"Santa Clara","event_date":"29-07-2023","latitude":37.2333253,"longitude":-121.6846349},{"venue_id":"63d4564f","name":"Levi's Stadium","city":"Santa Clara","event_date":"28-07-2023","latitude":37.2333253,"longitude":-121.6846349},{"venue_id":"5bd0d35c","name":"Lumen Field","city":"Seattle","event_date":"23-07-2023","latitude":47.6038321,"longitude":-122.330062},{"venue_id":"5bd0d35c","name":"Lumen Field","city":"Seattle","event_date":"22-07-2023","latitude":47.6038321,"longitude":-122.330062},{"venue_id":"63d30e6b","name":"Empower Field at Mile High","city":"Denver","event_date":"15-07-2023","latitude":39.7392364,"longitude":-104.984862},{"venue_id":"63d30e6b","name":"Empower Field at Mile High","city":"Denver","event_date":"14-07-2023","latitude":39.7392364,"longitude":-104.984862},{"venue_id":"23d08027","name":"GEHA Field at Arrowhead Stadium","city":"Kansas City","event_date":"08-07-2023","latitude":39.100105,"longitude":-94.5781416},{"venue_id":"23d08027","name":"GEHA Field at Arrowhead Stadium","city":"Kansas City","event_date":"07-07-2023","latitude":39.100105,"longitude":-94.5781416},{"venue_id":"4bd07bca","name":"Paycor Stadium","city":"Cincinnati","event_date":"01-07-2023","latitude":39.1014537,"longitude":-84.5124602},{"venue_id":"4bd07bca","name":"Paycor Stadium","city":"Cincinnati","event_date":"30-06-2023","latitude":39.1014537,"longitude":-84.5124602},{"venue_id":"43d253af","name":"U.S. Bank Stadium","city":"Minneapolis","event_date":"24-06-2023","latitude":44.9772995,"longitude":-93.2654692},{"venue_id":"43d253af","name":"U.S. Bank Stadium","city":"Minneapolis","event_date":"23-06-2023","latitude":44.9772995,"longitude":-93.2654692},{"venue_id":"13d05d01","name":"Acrisure Stadium","city":"Pittsburgh","event_date":"17-06-2023","latitude":40.4416941,"longitude":-79.9900861},{"venue_id":"13d05d01","name":"Acrisure Stadium","city":"Pittsburgh","event_date":"16-06-2023","latitude":40.4416941,"longitude":-79.9900861},{"venue_id":"bd6398a","name":"Ford Field","city":"Detroit","event_date":"10-06-2023","latitude":42.3315509,"longitude":-83.0466403},{"venue_id":"bd6398a","name":"Ford Field","city":"Detroit","event_date":"09-06-2023","latitude":42.3315509,"longitude":-83.0466403},{"venue_id":"4bd637ce","name":"Soldier Field","city":"Chicago","event_date":"04-06-2023","latitude":41.8755616,"longitude":-87.6244212},{"venue_id":"4bd637ce","name":"Soldier Field","city":"Chicago","event_date":"03-06-2023","latitude":41.8755616,"longitude":-87.6244212},{"venue_id":"4bd637ce","name":"Soldier Field","city":"Chicago","event_date":"02-06-2023","latitude":41.8755616,"longitude":-87.6244212},{"venue_id":"1bd72160","name":"MetLife Stadium","city":"East Rutherford","event_date":"28-05-2023","latitude":40.833989,"longitude":-74.0970865},{"venue_id":"1bd72160","name":"MetLife Stadium","city":"East Rutherford","event_date":"27-05-2023","latitude":40.833989,"longitude":-74.0970865},{"venue_id":"1bd72160","name":"MetLife Stadium","city":"East Rutherford","event_date":"26-05-2023","latitude":40.833989,"longitude":-74.0970865},{"venue_id":"13d6d59d","name":"Gillette Stadium","city":"Foxborough","event_date":"21-05-2023","latitude":42.0653768,"longitude":-71.2478308},{"venue_id":"13d6d59d","name":"Gillette Stadium","city":"Foxborough","event_date":"20-05-2023","latitude":42.0653768,"longitude":-71.2478308},{"venue_id":"13d6d59d","name":"Gillette Stadium","city":"Foxborough","event_date":"19-05-2023","latitude":42.0653768,"longitude":-71.2478308},{"venue_id":"7bd61e04","name":"Lincoln Financial Field","city":"Philadelphia","event_date":"14-05-2023","latitude":39.9527237,"longitude":-75.1635262},{"venue_id":"7bd61e04","name":"Lincoln Financial Field","city":"Philadelphia","event_date":"13-05-2023","latitude":39.9527237,"longitude":-75.1635262},{"venue_id":"7bd61e04","name":"Lincoln Financial Field","city":"Philadelphia","event_date":"12-05-2023","latitude":39.9527237,"longitude":-75.1635262},{"venue_id":"53d5a385","name":"Nissan Stadium","city":"Nashville","event_date":"07-05-2023","latitude":36.1622767,"longitude":-86.7742984},{"venue_id":"53d5a385","name":"Nissan Stadium","city":"Nashville","event_date":"06-05-2023","latitude":36.1622767,"longitude":-86.7742984},{"venue_id":"53d5a385","name":"Nissan Stadium","city":"Nashville","event_date":"05-05-2023","latitude":36.1622767,"longitude":-86.7742984},{"venue_id":"6bd28eea","name":"Mercedes-Benz Stadium","city":"Atlanta","event_date":"30-04-2023","latitude":33.7489924,"longitude":-84.3902644},{"venue_id":"6bd28eea","name":"Mercedes-Benz Stadium","city":"Atlanta","event_date":"29-04-2023","latitude":33.7489924,"longitude":-84.3902644},{"venue_id":"6bd28eea","name":"Mercedes-Benz Stadium","city":"Atlanta","event_date":"28-04-2023","latitude":33.7489924,"longitude":-84.3902644},{"venue_id":"bd451b6","name":"NRG Stadium","city":"Houston","event_date":"23-04-2023","latitude":29.7589382,"longitude":-95.3676974},{"venue_id":"bd451b6","name":"NRG Stadium","city":"Houston","event_date":"22-04-2023","latitude":29.7589382,"longitude":-95.3676974},{"venue_id":"bd451b6","name":"NRG Stadium","city":"Houston","event_date":"21-04-2023","latitude":29.7589382,"longitude":-95.3676974},{"venue_id":"73d616a5","name":"Raymond James Stadium","city":"Tampa","event_date":"15-04-2023","latitude":27.9477595,"longitude":-82.458444},{"venue_id":"73d616a5","name":"Raymond James Stadium","city":"Tampa","event_date":"14-04-2023","latitude":27.9477595,"longitude":-82.458444},{"venue_id":"73d616a5","name":"Raymond James Stadium","city":"Tampa","event_date":"13-04-2023","latitude":27.9477595,"longitude":-82.458444},{"venue_id":"6bd43202","name":"AT&T Stadium","city":"Arlington","event_date":"02-04-2023","latitude":32.7355816,"longitude":-97.1071186},{"venue_id":"6bd43202","name":"AT&T Stadium","city":"Arlington","event_date":"01-04-2023","latitude":32.7355816,"longitude":-97.1071186},{"venue_id":"6bd43202","name":"AT&T Stadium","city":"Arlington","event_date":"31-03-2023","latitude":32.7355816,"longitude":-97.1071186},{"venue_id":"6bd08e7e","name":"Allegiant Stadium","city":"Las Vegas","event_date":"25-03-2023","latitude":36.1672559,"longitude":-115.148516},{"venue_id":"6bd08e7e","name":"Allegiant Stadium","city":"Las Vegas","event_date":"24-03-2023","latitude":36.1672559,"longitude":-115.148516},{"venue_id":"63d20e8f","name":"State Farm Stadium","city":"Glendale","event_date":"18-03-2023","latitude":34.1469416,"longitude":-118.2478471},{"venue_id":"63d20e8f","name":"State Farm Stadium","city":"Glendale","event_date":"17-03-2023","latitude":34.1469416,"longitude":-118.2478471}]